[
  {
    "code": "bd5289d8c4b5a1a4d4f1a3840ef08571",
    "placeId": "ChIJ90260rVG1moRkM2MIXVWBAQ",
    "name": "Melbourne",
    "longitude": 144.9630576,
    "latitude": -37.8136276
  },
  {
    "code": "337fff3e2f54b8754a2929e09e7dc124",
    "placeId": "ChIJiSM5Zmho1moR4NqMIXVWBAU",
    "name": "St Kilda",
    "longitude": 144.982,
    "latitude": -37.864
  },
  {
    "code": "f33c905b892d1a5ebbb34e9f84d24fac",
    "placeId": "ChIJRbmNAVlC1moREOiMIXVWBAU",
    "name": "Richmond",
    "longitude": 144.9982667,
    "latitude": -37.8238936
  },
  {
    "code": "f289e6f14c15a651d7472e68780b92b2",
    "placeId": "ChIJg0bUSCoL1moRQOKMIXVWBAU",
    "name": "Frankston",
    "longitude": 145.135722,
    "latitude": -38.1466246
  },
  {
    "code": "82bd407ae4ce3c94e8dd6c2675d5d901",
    "placeId": "ChIJ0S2YU9FC1moRgOeMIXVWBAU",
    "name": "Carlton",
    "longitude": 144.9669992,
    "latitude": -37.8007555
  },
  {
    "code": "b3ec91c194f43a28e74b29f2d6acf46b",
    "placeId": "ChIJZWnLOihd1moRYOeMIXVWBAU",
    "name": "North Melbourne",
    "longitude": 144.9485049,
    "latitude": -37.8008004
  },
  {
    "code": "0480a9b18c77404a2fe0ce69251f294e",
    "placeId": "ChIJl4xHgSJp1moRQN2MIXVWBAU",
    "name": "Brighton",
    "longitude": 144.9915515,
    "latitude": -37.9128827
  },
  {
    "code": "e668b743d65556cfe986c8fc1d252a48",
    "placeId": "ChIJnx73HP4T1moRgN-MIXVWBAU",
    "name": "Dandenong",
    "longitude": 145.2139907,
    "latitude": -37.9847811
  },
  {
    "code": "594eb7c5391dc7e15b7a70750a23aae9",
    "placeId": "ChIJYZwbBPxn1moRUOiMIXVWBAU",
    "name": "South Melbourne",
    "longitude": 144.9559035,
    "latitude": -37.83434430000001
  },
  {
    "code": "2260b325ca23b71d97eb1e9e431dc4b7",
    "placeId": "ChIJrUX0neFC1moRoOeMIXVWBAU",
    "name": "Collingwood",
    "longitude": 144.9873447,
    "latitude": -37.799283
  },
  {
    "code": "2c2a368a1bcbe0a3a89da3bc7be708f2",
    "placeId": "ChIJwaVwBTlC1moR8NiMIXVWBAU",
    "name": "Hawthorn",
    "longitude": 145.0353696,
    "latitude": -37.8226005
  },
  {
    "code": "2aeec92ae2e0c2cb3d8c590b3dcba32d",
    "placeId": "ChIJK6m1WmNc1moRcNSMIXVWBAU",
    "name": "Essendon",
    "longitude": 144.9160333,
    "latitude": -37.7527648
  },
  {
    "code": "8a97dc0fa125d53d34f44cfeb9049e45",
    "placeId": "ChIJ9zHvuD9m1moRQOiMIXVWBAU",
    "name": "Port Melbourne",
    "longitude": 144.9284179,
    "latitude": -37.8369312
  },
  {
    "code": "f74ea4ec21a6341473558ef3e0993e68",
    "placeId": "ChIJJ8HEn41d1moRQOeMIXVWBAU",
    "name": "Footscray",
    "longitude": 144.892357,
    "latitude": -37.7988987
  },
  {
    "code": "1027ffbbf80fcced3ff33ff0ea2f4f2e",
    "placeId": "ChIJwWVq9cBC1moRkOeMIXVWBAU",
    "name": "Fitzroy",
    "longitude": 144.9784894,
    "latitude": -37.7983606
  },
  {
    "code": "49fe7595a9f85ddc8b95cdbfd45269d1",
    "placeId": "ChIJb9QWRmdd1moR8P2MIXVWBAU",
    "name": "Docklands",
    "longitude": 144.9465764,
    "latitude": -37.8190118
  },
  {
    "code": "cde2a48a08ca95f1d2eeefe87134932b",
    "placeId": "ChIJxyI5I3BC1moRsNmMIXVWBAU",
    "name": "Toorak",
    "longitude": 145.0138468,
    "latitude": -37.8416751
  },
  {
    "code": "686516e8afcc0c2e3ab765645b6a9d84",
    "placeId": "ChIJ9xkrVKVA1moRANmMIXVWBAU",
    "name": "Box Hill",
    "longitude": 145.1238563,
    "latitude": -37.8181073
  },
  {
    "code": "153b0a12c7ae8dc0f2b9714f7a16d493",
    "placeId": "ChIJaamxJ7lc1moRsNWMIXVWBAU",
    "name": "Brunswick",
    "longitude": 144.9621035,
    "latitude": -37.7670374
  },
  {
    "code": "a03eb15e4cc388ee0f4a7ca1d122f7dd",
    "placeId": "ChIJm4WGJS9o1moRgOiMIXVWBAU",
    "name": "South Yarra",
    "longitude": 144.9955966,
    "latitude": -37.8395181
  },
  {
    "code": "dc2e67a7394f35ca3caa6260cbfd7ea5",
    "placeId": "ChIJUzACEw2F1moRQOmMIXVWBAU",
    "name": "Werribee",
    "longitude": 144.6641401,
    "latitude": -37.8997995
  },
  {
    "code": "954327f862cd328eb4f75d0ec396798d",
    "placeId": "ChIJHdSZnlRm1moREOmMIXVWBAU",
    "name": "Williamstown",
    "longitude": 144.8937637,
    "latitude": -37.8583477
  },
  {
    "code": "060c0da8befac52b9942dff08102de89",
    "placeId": "ChIJw5wfF8FD1moRUOeMIXVWBAU",
    "name": "Kew",
    "longitude": 145.0288674,
    "latitude": -37.8074324
  },
  {
    "code": "d1e480d89cba961f8787724e689150fd",
    "placeId": "ChIJz25SvMFC1moRAOiMIXVWBAU",
    "name": "East Melbourne",
    "longitude": 144.9834796,
    "latitude": -37.81032829999999
  },
  {
    "code": "e5458dd292e9722bda2e2ca03e62f537",
    "placeId": "ChIJy2a9frZr1moRQNuMIXVWBAU",
    "name": "Glen Waverley",
    "longitude": 145.1668205,
    "latitude": -37.87435019999999
  },
  {
    "code": "6814670f6479e391883cf8d6f588754e",
    "placeId": "ChIJYS4t5oBg1moR4NSMIXVWBAU",
    "name": "Sunshine",
    "longitude": 144.8327296,
    "latitude": -37.7812629
  },
  {
    "code": "f3d35d4a8e69af56db37b6d98092125d",
    "placeId": "ChIJ22orkgk81moRkNeMIXVWBAU",
    "name": "Ringwood",
    "longitude": 145.2310109,
    "latitude": -37.8145771
  },
  {
    "code": "79ffb62671fd397e7b929bafc3add17b",
    "placeId": "ChIJITJxwZ1h1moRcNqMIXVWBAU",
    "name": "Altona",
    "longitude": 144.8311028,
    "latitude": -37.864571
  },
  {
    "code": "c150f19d3f9f8b58199b3bf1ddb9792b",
    "placeId": "ChIJ-ZIQ51ZE1moRwNOMIXVWBAU",
    "name": "Preston",
    "longitude": 145.0028571,
    "latitude": -37.7450963
  },
  {
    "code": "3f6e8730155d930dcce2d7800063342a",
    "placeId": "ChIJY6WjaipH1moR4NaMIXVWBAU",
    "name": "Doncaster",
    "longitude": 145.1248634,
    "latitude": -37.787397
  },
  {
    "code": "af2aecaeee7f40de110818fd713cded1",
    "placeId": "ChIJeduNNNhC1moR8OeMIXVWBAU",
    "name": "West Melbourne",
    "longitude": 144.9290625,
    "latitude": -37.8089044
  },
  {
    "code": "03af8a6038b74edb429f875f6b789d0a",
    "placeId": "ChIJT8ASrWM_1moRYNmMIXVWBAU",
    "name": "Camberwell",
    "longitude": 145.0681032,
    "latitude": -37.8326655
  },
  {
    "code": "eb00cb29ea28c6e2b9cc47f92b8ada0f",
    "placeId": "ChIJNxy3Lo0N1moRUOGMIXVWBAU",
    "name": "Cranbourne",
    "longitude": 145.2818338,
    "latitude": -38.1054204
  },
  {
    "code": "2ba19b99195db3911a52fe5d46380854",
    "placeId": "ChIJhemuV9Zq1moRwN2MIXVWBAU",
    "name": "Clayton",
    "longitude": 145.127492,
    "latitude": -37.9145479
  },
  {
    "code": "2526398e2a23fbe9d117a48a1c07130b",
    "placeId": "ChIJFc4iKARC1moRMNqMIXVWBAU",
    "name": "Malvern",
    "longitude": 145.0357348,
    "latitude": -37.852403
  },
  {
    "code": "ce34ad3a064801339997b3d6ca47eea7",
    "placeId": "ChIJ69X0mMBE1moRMNSMIXVWBAU",
    "name": "Coburg",
    "longitude": 144.9666108,
    "latitude": -37.7412988
  },
  {
    "code": "c064eaf423be27775124dd2dc8ada320",
    "placeId": "ChIJxUv0xoYb1moRsOCMIXVWBAU",
    "name": "Pakenham",
    "longitude": 145.4818724,
    "latitude": -38.0776708
  },
  {
    "code": "33994f8fb3651fc03e41d649d38af07f",
    "placeId": "ChIJm4eXufUu1moRINSMIXVWBAU",
    "name": "Lilydale",
    "longitude": 145.35496,
    "latitude": -37.7569847
  },
  {
    "code": "4b82d34c255e3da6662add13eb6b86da",
    "placeId": "ChIJ1wik0Wxp1moRAPmMIXVWBAU",
    "name": "Caulfield",
    "longitude": 145.0295877,
    "latitude": -37.8831621
  },
  {
    "code": "fbe3539e70b2c1e281cd32281575a347",
    "placeId": "ChIJMedhIGhG1moR8NSMIXVWBAU",
    "name": "Heidelberg",
    "longitude": 145.0696116,
    "latitude": -37.7566014
  },
  {
    "code": "b49033ba35298d66a7583d1a195dbbf4",
    "placeId": "ChIJvSWt3uFn1moRoOiMIXVWBAU",
    "name": "Albert Park",
    "longitude": 144.9514536,
    "latitude": -37.8438609
  },
  {
    "code": "e2f2b4862e2f4f483d544e7a3917b714",
    "placeId": "ChIJD-GLCkVd1moRwP6MIXVWBAU",
    "name": "Southbank",
    "longitude": 144.9624973,
    "latitude": -37.82384
  },
  {
    "code": "85c531b73e79f215313b643b414529ca",
    "placeId": "ChIJt3AnVfpu1moR8N6MIXVWBAU",
    "name": "Sandringham",
    "longitude": 145.0080053,
    "latitude": -37.9522614
  },
  {
    "code": "69e14526b09717ce1b8f5249bf73bab4",
    "placeId": "ChIJtXAyhyNo1moR4OiMIXVWBAU",
    "name": "Prahran",
    "longitude": 145.0027616,
    "latitude": -37.8507947
  },
  {
    "code": "71f303322dca9bf2cc221f2eef455037",
    "placeId": "ChIJJeiaNoRq1moRANyMIXVWBAU",
    "name": "Chadstone",
    "longitude": 145.0959519,
    "latitude": -37.8810091
  },
  {
    "code": "ba9fd3c2040218ec1080b8aebbb54599",
    "placeId": "ChIJV8DefPZc1moRENaMIXVWBAU",
    "name": "Moonee Ponds",
    "longitude": 144.9248074,
    "latitude": -37.767131
  },
  {
    "code": "f0ae8ab36205f846d4ee2b8d8344369d",
    "placeId": "ChIJx_d-ZwZd1moRUNeMIXVWBAU",
    "name": "Flemington",
    "longitude": 144.9217957,
    "latitude": -37.7853038
  },
  {
    "code": "dc0d673afd8d7da79b75c582d6e55c84",
    "placeId": "ChIJocuG0vVq1moR0NyMIXVWBAU",
    "name": "Oakleigh",
    "longitude": 145.091857,
    "latitude": -37.9016644
  },
  {
    "code": "eca93954ae1d771b05f02d7ae36974ac",
    "placeId": "ChIJTRICMtdc1moREOeMIXVWBAU",
    "name": "Parkville",
    "longitude": 144.9426083,
    "latitude": -37.7787036
  },
  {
    "code": "711e0efaf976a21e6a815b700773e2cb",
    "placeId": "ChIJfcIpW7Q31moRQNKMIXVWBAU",
    "name": "Eltham",
    "longitude": 145.1460687,
    "latitude": -37.718984
  },
  {
    "code": "31e4108cc883a2c22b2543f346b0542b",
    "placeId": "ChIJc-QdInxD1moRUNaMIXVWBAU",
    "name": "Northcote",
    "longitude": 144.9990291,
    "latitude": -37.7692917
  },
  {
    "code": "b50d15fc719d5ce236bcfe3fe2e3a855",
    "placeId": "ChIJ35Dd08AU1moRQN6MIXVWBAU",
    "name": "Springvale",
    "longitude": 145.1529433,
    "latitude": -37.9487211
  },
  {
    "code": "a5bf76aafeb79d02c1043924f3675f4c",
    "placeId": "ChIJp5N8-eVB1moRkNqMIXVWBAU",
    "name": "Glen Iris",
    "longitude": 145.0593297,
    "latitude": -37.8600246
  },
  {
    "code": "49a9e630ea07de948f2b54b7eb6cab4b",
    "placeId": "ChIJB7Q5LrQ41moRoNiMIXVWBAU",
    "name": "Blackburn",
    "longitude": 145.1530529,
    "latitude": -37.8197129
  },
  {
    "code": "97dc5d192d5bb846f7fd6f713c253801",
    "placeId": "ChIJ6U9XEepb1moR8NCMIXVWBAU",
    "name": "Broadmeadows",
    "longitude": 144.9246674,
    "latitude": -37.6858788
  },
  {
    "code": "22c48a3f9c1a97911ad2cb8dda43da66",
    "placeId": "ChIJ0TmhodBb1moRINGMIXVWBAU",
    "name": "Tullamarine",
    "longitude": 144.8803113,
    "latitude": -37.6994841
  },
  {
    "code": "ce65f05c821ff2551ff0810676f65d01",
    "placeId": "ChIJA-4YjQZs1moRMN6MIXVWBAU",
    "name": "Moorabbin",
    "longitude": 145.0601734,
    "latitude": -37.941898
  },
  {
    "code": "a7101f49bf63d6d658b863eee073c042",
    "placeId": "ChIJ4QHVOolO1moR0M-MIXVWBAU",
    "name": "Epping",
    "longitude": 145.0264991,
    "latitude": -37.6376635
  },
  {
    "code": "fab6a8c85fc82a661db629e5d86ebee9",
    "placeId": "ChIJG_Vl7qdy1moRIOGMIXVWBAU",
    "name": "Chelsea",
    "longitude": 145.1160848,
    "latitude": -38.051641
  },
  {
    "code": "988b1b29a8004b476d3f05ed3076f0b0",
    "placeId": "ChIJU276ZSZr1moR8NqMIXVWBAU",
    "name": "Mount Waverley",
    "longitude": 145.1291077,
    "latitude": -37.8749614
  },
  {
    "code": "449d554493384ca00c969ec472b698dc",
    "placeId": "ChIJ9Rj-aF5A1moRENqMIXVWBAU",
    "name": "Burwood",
    "longitude": 145.1090089,
    "latitude": -37.8494981
  },
  {
    "code": "99227568a7492b5eea0e44355c39a106",
    "placeId": "ChIJEaOR4ZVD1moR4NWMIXVWBAU",
    "name": "Ivanhoe",
    "longitude": 145.0429223,
    "latitude": -37.7683771
  },
  {
    "code": "5236bbc0fe87c1687c000ad430b71ccc",
    "placeId": "ChIJfaTcgQ5d1moRcOeMIXVWBAU",
    "name": "Kensington",
    "longitude": 144.9276659,
    "latitude": -37.7941207
  },
  {
    "code": "9a06be494d2947ffa15b2f51356ae85e",
    "placeId": "ChIJxZocKZRE1moRANaMIXVWBAU",
    "name": "Brunswick East",
    "longitude": 144.9802463,
    "latitude": -37.7673388
  },
  {
    "code": "666cdf470b855f686495395d22b5b79b",
    "placeId": "ChIJ99xa6kJI1moRUNGMIXVWBAU",
    "name": "Greensborough",
    "longitude": 145.1006438,
    "latitude": -37.70436979999999
  },
  {
    "code": "dcfabe5b703ef0cc3c88c802c8f3ffc4",
    "placeId": "ChIJg4rzIDJS1moRoM6MIXVWBAU",
    "name": "Craigieburn",
    "longitude": 144.9100319,
    "latitude": -37.5939825
  },
  {
    "code": "1265bb4e84ac718eadeb3b69d569bbde",
    "placeId": "ChIJx3y26INF1moRANKMIXVWBAU",
    "name": "Reservoir",
    "longitude": 145.0077608,
    "latitude": -37.7166681
  },
  {
    "code": "7e8a36e172ad264e534ba5b711b59137",
    "placeId": "ChIJvdvg2Ehn1moRsNiMIXVWBAU",
    "name": "Yarraville",
    "longitude": 144.8821697,
    "latitude": -37.8202741
  },
  {
    "code": "d5ac3713203c60f3851f31dadddffe04",
    "placeId": "ChIJx4oU4nOI1moRkNyMIXVWBAU",
    "name": "Point Cook",
    "longitude": 144.7535412,
    "latitude": -37.9002829
  },
  {
    "code": "838f24becec8a4ac683fcd3611723bc1",
    "placeId": "ChIJR7Q5hb9I1moRMNGMIXVWBAU",
    "name": "Bundoora",
    "longitude": 145.0622727,
    "latitude": -37.6948854
  },
  {
    "code": "6c973e2af4720dd2737b1f5b324ae20f",
    "placeId": "ChIJHdYdf_No1moR4NuMIXVWBAU",
    "name": "Elwood",
    "longitude": 144.9825759,
    "latitude": -37.8822486
  },
  {
    "code": "029e5f183e7bec41d4441c07f498668b",
    "placeId": "ChIJ3fwOQypZ1moRwNGMIXVWBAU",
    "name": "Keilor",
    "longitude": 144.8282459,
    "latitude": -37.7161471
  },
  {
    "code": "f82909517bc63f0f63617f749b199a43",
    "placeId": "ChIJec3ybBFq1moRoNuMIXVWBAU",
    "name": "Malvern East",
    "longitude": 145.059272,
    "latitude": -37.8773116
  },
  {
    "code": "9cce0bf4494781a4f9caa6c6a38a17da",
    "placeId": "ChIJzaR5Ju081moRsNuMIXVWBAU",
    "name": "Ferntree Gully",
    "longitude": 145.2776105,
    "latitude": -37.8826855
  },
  {
    "code": "d9c9da1c34d10ce6b848a7d7190536cc",
    "placeId": "ChIJOROExDFD1moRQNeMIXVWBAU",
    "name": "Carlton North",
    "longitude": 144.9731431,
    "latitude": -37.782195
  },
  {
    "code": "f92fef8cd4abffa36f00284be001d498",
    "placeId": "ChIJL9xa1Asj1moRIN2MIXVWBAU",
    "name": "Belgrave",
    "longitude": 145.3571402,
    "latitude": -37.9112468
  },
  {
    "code": "f063d64e726805b422f7f9cbb3e63f12",
    "placeId": "ChIJOU0ZRLFp1moRINuMIXVWBAU",
    "name": "St Kilda East",
    "longitude": 145.0027144,
    "latitude": -37.8668061
  },
  {
    "code": "0a5fb3e86993973156d922646e86adb3",
    "placeId": "ChIJQ71lNTtB1moRMNiMIXVWBAU",
    "name": "Balwyn",
    "longitude": 145.0813238,
    "latitude": -37.8128937
  },
  {
    "code": "cc643aed4bd9073a967ee4db7e40bad2",
    "placeId": "ChIJLxdiRNZ01moRsP6MIXVWBAU",
    "name": "Frankston South",
    "longitude": 145.139271,
    "latitude": -38.1737337
  },
  {
    "code": "b68e270a5727b74f4905a5b5844caaf3",
    "placeId": "ChIJ7dFxt7Vt1moRoN-MIXVWBAU",
    "name": "Mentone",
    "longitude": 145.064387,
    "latitude": -37.9812197
  },
  {
    "code": "bde5fdacc02043285bb480524da84a98",
    "placeId": "ChIJBWqsgNET1moRcOCMIXVWBAU",
    "name": "Dandenong South",
    "longitude": 145.2120596,
    "latitude": -38.0316959
  },
  {
    "code": "ecdf5dbe04eeb86e0274c6b8e72676c6",
    "placeId": "ChIJh2V6EpdD1moRYNeMIXVWBAU",
    "name": "Kew East",
    "longitude": 145.0482331,
    "latitude": -37.791629
  },
  {
    "code": "db24a2dc7158a22e39295c7f4d8f0c51",
    "placeId": "ChIJtxogFb5c1moRUNWMIXVWBAU",
    "name": "Brunswick West",
    "longitude": 144.9448586,
    "latitude": -37.75864809999999
  },
  {
    "code": "2d6d6ef5b8ebf501edf35ecfec661a29",
    "placeId": "ChIJnWEb9N5u1moRgN6MIXVWBAU",
    "name": "Hampton",
    "longitude": 145.0031893,
    "latitude": -37.9338333
  },
  {
    "code": "5c3ccf6a4b3785ba5984105d99b982f9",
    "placeId": "ChIJpebFiDBp1moRYN2MIXVWBAU",
    "name": "Brighton East",
    "longitude": 145.0159759,
    "latitude": -37.9156746
  },
  {
    "code": "02889130ebf1836ee82ef69e4ae2177d",
    "placeId": "ChIJBepK6U9p1moREN6MIXVWBAU",
    "name": "Bentleigh",
    "longitude": 145.0417166,
    "latitude": -37.9188435
  },
  {
    "code": "2790ebc09696545e7c4253b92fc954f8",
    "placeId": "ChIJBbWfCrSI1moR8OiMIXVWBAU",
    "name": "Hoppers Crossing",
    "longitude": 144.6854533,
    "latitude": -37.8629027
  },
  {
    "code": "69e791c39869ae6b73779d6ca37d8725",
    "placeId": "ChIJzaFs7odB1moRMNmMIXVWBAU",
    "name": "Hawthorn East",
    "longitude": 145.047703,
    "latitude": -37.8303331
  },
  {
    "code": "26dbd9046471fdffbc4ea2e9855352e8",
    "placeId": "ChIJr_JDKBVD1moRENeMIXVWBAU",
    "name": "Fitzroy North",
    "longitude": 144.9838466,
    "latitude": -37.7832944
  },
  {
    "code": "89e635f78c5847205bb2452693ec0596",
    "placeId": "ChIJWQzJTkNu1moRUN-MIXVWBAU",
    "name": "Black Rock",
    "longitude": 145.0161708,
    "latitude": -37.975381
  },
  {
    "code": "18ab59aa0d5a44e388f2071ef70f4c6c",
    "placeId": "ChIJBRNa-41G1moRwNSMIXVWBAU",
    "name": "Doncaster East",
    "longitude": 145.1619649,
    "latitude": -37.7891081
  },
  {
    "code": "5d7ec22183b80cc83a68e13477dceda2",
    "placeId": "ChIJ6wnSWKA41moR4NeMIXVWBAU",
    "name": "Box Hill North",
    "longitude": 145.1268438,
    "latitude": -37.8017621
  },
  {
    "code": "d179bfdb9dfff1ef110b68aa606c44c7",
    "placeId": "ChIJ1fUFcWJE1moRMNWMIXVWBAU",
    "name": "Thornbury",
    "longitude": 145.0004556,
    "latitude": -37.759569
  },
  {
    "code": "4cf129b93225e58862e127e74b6c2369",
    "placeId": "ChIJCVtZknNP1moRANGMIXVWBAU",
    "name": "Thomastown",
    "longitude": 144.999386,
    "latitude": -37.6787568
  },
  {
    "code": "b8541a3b8eca628179fdd9558207aec9",
    "placeId": "ChIJPRflEAo41moRUNSMIXVWBAU",
    "name": "Templestowe",
    "longitude": 145.142697,
    "latitude": -37.760599
  },
  {
    "code": "4db794be0764f807a0eb51fc373498fb",
    "placeId": "ChIJD88FE2Rb1moRMNOMIXVWBAU",
    "name": "Pascoe Vale",
    "longitude": 144.9384853,
    "latitude": -37.7315238
  },
  {
    "code": "6ae24aa28772f9afd6d28b314c8168be",
    "placeId": "ChIJg9-C0mRb1moR4NKMIXVWBAU",
    "name": "Airport West",
    "longitude": 144.8813526,
    "latitude": -37.726234
  },
  {
    "code": "edd7fa231e76a8a543aefa80655ebf6d",
    "placeId": "ChIJt1lRhapd1moR8NaMIXVWBAU",
    "name": "Ascot Vale",
    "longitude": 144.9278026,
    "latitude": -37.7745085
  },
  {
    "code": "d0a16cc9f72f6dd2f64bbe91b460e3a1",
    "placeId": "ChIJgcLmc6kQ1moRIOCMIXVWBAU",
    "name": "Narre Warren",
    "longitude": 145.3067451,
    "latitude": -38.026173
  },
  {
    "code": "844b7a3e7e7b05784bc29e56b6ac4519",
    "placeId": "ChIJ6QvqCP9d1moRwNeMIXVWBAU",
    "name": "West Footscray",
    "longitude": 144.8716645,
    "latitude": -37.8006709
  },
  {
    "code": "2b577ce5a6a153aa7af413da0007088a",
    "placeId": "ChIJBdG5Fkpo1moRINyMIXVWBAU",
    "name": "Elsternwick",
    "longitude": 145.0059691,
    "latitude": -37.8849536
  },
  {
    "code": "578bf715c8bc88e7984a317ad3778c9b",
    "placeId": "ChIJgwC8RRhL1moR0M6MIXVWBAU",
    "name": "Mernda",
    "longitude": 145.0886978,
    "latitude": -37.5996872
  },
  {
    "code": "a29eb75f44934944650ca51953ffd72d",
    "placeId": "ChIJm2nXhh4u1moR0NaMIXVWBAU",
    "name": "Croydon",
    "longitude": 145.2812664,
    "latitude": -37.7944026
  },
  {
    "code": "23c23c657da9499ef38873531204ae57",
    "placeId": "ChIJc4YExwBD1moRsOeMIXVWBAU",
    "name": "Abbotsford",
    "longitude": 145.0019064,
    "latitude": -37.80210950000001
  },
  {
    "code": "3d9d14031c60802964bff1118c8dc89c",
    "placeId": "ChIJVaEARUNC1moRgNmMIXVWBAU",
    "name": "Burnley",
    "longitude": 145.0126479,
    "latitude": -37.8296728
  },
  {
    "code": "0a3d609cd7977524f016347661cca858",
    "placeId": "ChIJD_hK1eZA1moRwNiMIXVWBAU",
    "name": "Surrey Hills",
    "longitude": 145.0972417,
    "latitude": -37.82593809999999
  },
  {
    "code": "197179089d7bfb06be10420d69f983fe",
    "placeId": "ChIJUTW5madt1moR0N-MIXVWBAU",
    "name": "Mordialloc",
    "longitude": 145.0940302,
    "latitude": -37.9995418
  },
  {
    "code": "300224616101f68c5fceeb6c7c68309b",
    "placeId": "ChIJCdpiqw1D1moRgNeMIXVWBAU",
    "name": "Clifton Hill",
    "longitude": 145.0002125,
    "latitude": -37.7877787
  },
  {
    "code": "3520797a5049f1dd6546054d8353f23a",
    "placeId": "ChIJD5EGdC0_1moRUNiMIXVWBAU",
    "name": "Nunawading",
    "longitude": 145.1760206,
    "latitude": -37.8184273
  },
  {
    "code": "fd51d7959f10cc1005950a17ae872dee",
    "placeId": "ChIJe5oTKyRs1moRIN-MIXVWBAU",
    "name": "Cheltenham",
    "longitude": 145.0578515,
    "latitude": -37.9656436
  },
  {
    "code": "301d9babe2b5e3b076e52b2d5c7d268a",
    "placeId": "ChIJgwzadTxo1moREPiMIXVWBAU",
    "name": "Windsor",
    "longitude": 144.992833,
    "latitude": -37.8547215
  },
  {
    "code": "6f542c4f534264d1ac8886a1ae639716",
    "placeId": "ChIJa0Hcacs-1moRwNmMIXVWBAU",
    "name": "Vermont",
    "longitude": 145.1954531,
    "latitude": -37.8359978
  },
  {
    "code": "7da465a6fa7ad96c36ad97bf3a775957",
    "placeId": "ChIJF7MP6s9L1moRYM-MIXVWBAU",
    "name": "South Morang",
    "longitude": 145.0935493,
    "latitude": -37.6372475
  },
  {
    "code": "5fb535bccc6f834c68103965ea408c0c",
    "placeId": "ChIJ60N1ASlz1moRQOGMIXVWBAU",
    "name": "Carrum",
    "longitude": 145.123188,
    "latitude": -38.07635519999999
  },
  {
    "code": "a3451761b8365776675fddb883ffd45d",
    "placeId": "ChIJkzbUrpFA1moRkNmMIXVWBAU",
    "name": "Box Hill South",
    "longitude": 145.120253,
    "latitude": -37.83852479999999
  },
  {
    "code": "88407ef3102ee1c7f488170b07cc4136",
    "placeId": "ChIJmbzkJ4AX1moRMOCMIXVWBAU",
    "name": "Berwick",
    "longitude": 145.3437469,
    "latitude": -38.0309443
  },
  {
    "code": "73c96d65e12a144ae72a1b8e153c8a97",
    "placeId": "ChIJn1De2q0e1moRkOCMIXVWBAU",
    "name": "Officer",
    "longitude": 145.4100456,
    "latitude": -38.0601124
  },
  {
    "code": "cefa2af5c44e11ba7273d7e90eea15ff",
    "placeId": "ChIJpVWHYy0U1moRsN6MIXVWBAU",
    "name": "Dandenong North",
    "longitude": 145.206837,
    "latitude": -37.9592436
  },
  {
    "code": "8fe4b97253e67c0431cc3acce78db66b",
    "placeId": "ChIJ7W2p5Ohn1moR0OiMIXVWBAU",
    "name": "Middle Park",
    "longitude": 144.9615926,
    "latitude": -37.8509396
  },
  {
    "code": "1e3c88a429a8b512b8f16517ee844493",
    "placeId": "ChIJER9c5gZh1moRENmMIXVWBAU",
    "name": "Altona North",
    "longitude": 144.8475943,
    "latitude": -37.8347138
  },
  {
    "code": "f27d427288b91bfee917c7440cfae325",
    "placeId": "ChIJy7YAWkk61moR8NeMIXVWBAU",
    "name": "Ringwood East",
    "longitude": 145.2516073,
    "latitude": -37.8079276
  },
  {
    "code": "9e499eff36d0210b2bed92e27bfc6594",
    "placeId": "ChIJ4_cj6JpD1moRAOeMIXVWBAU",
    "name": "Fairfield",
    "longitude": 145.0181267,
    "latitude": -37.7790074
  },
  {
    "code": "7f107149e811a6075cc8b62946406a3c",
    "placeId": "ChIJ95VZFTML1moR8OGMIXVWBAU",
    "name": "Frankston North",
    "longitude": 145.1481719,
    "latitude": -38.12386619999999
  },
  {
    "code": "e8bcd888a03e417abd93372b02a432e8",
    "placeId": "ChIJN_3ci9BG1moRMNeMIXVWBAU",
    "name": "Balwyn North",
    "longitude": 145.0848683,
    "latitude": -37.7946578
  },
  {
    "code": "45eab649fdad58e3a5fa819308ee2b73",
    "placeId": "ChIJ1X2NIqDf1WoR4OKMIXVWBAU",
    "name": "Mount Eliza",
    "longitude": 145.0920162,
    "latitude": -38.1872268
  },
  {
    "code": "fe3ca9c973dd539084e63ded3f437db0",
    "placeId": "ChIJb4uHlo5p1moRQNyMIXVWBAU",
    "name": "Carnegie",
    "longitude": 145.0570577,
    "latitude": -37.8891994
  },
  {
    "code": "31c1b4c1fa257efb79ca34a7103cd9ed",
    "placeId": "ChIJeWfClxU51moRYNiMIXVWBAU",
    "name": "Mitcham",
    "longitude": 145.1936683,
    "latitude": -37.8163579
  },
  {
    "code": "5a1006a2efeeddd4dd3585565e4f9e89",
    "placeId": "ChIJg9teT5hf1moRsNOMIXVWBAU",
    "name": "St Albans",
    "longitude": 144.7999941,
    "latitude": -37.7442306
  },
  {
    "code": "27a3d0adc67d33a536fcaf40e7fe5427",
    "placeId": "ChIJY_vuHQ1B1moRINmMIXVWBAU",
    "name": "Canterbury",
    "longitude": 145.0828276,
    "latitude": -37.824234
  },
  {
    "code": "4bb2add6f3ce831d49b36f62b1ccc084",
    "placeId": "ChIJoZ5COCNF1moRUNOMIXVWBAU",
    "name": "Coburg North",
    "longitude": 144.9637677,
    "latitude": -37.7273944
  },
  {
    "code": "d03a0bb799deabfc8a07c749297c9607",
    "placeId": "ChIJKzZULsxd1moR8NWMIXVWBAU",
    "name": "Maribyrnong",
    "longitude": 144.8908713,
    "latitude": -37.7837482
  },
  {
    "code": "76745ca2f50bfd77e6c5a278216e922e",
    "placeId": "ChIJq3YOujk31moR4NOMIXVWBAU",
    "name": "Warrandyte",
    "longitude": 145.2099924,
    "latitude": -37.7473655
  },
  {
    "code": "a353d939fcc180900fba997ea9253575",
    "placeId": "ChIJwUj6hc5B1moRANuMIXVWBAU",
    "name": "Ashburton",
    "longitude": 145.0811189,
    "latitude": -37.8636015
  },
  {
    "code": "7c9c2cfe851c132ed5e133ac696a4947",
    "placeId": "ChIJNRgidG5o1moRQP6MIXVWBAU",
    "name": "St Kilda West",
    "longitude": 144.9698325,
    "latitude": -37.8582498
  },
  {
    "code": "26bdd60242dbfe2b6ceca5e78ccdbb4b",
    "placeId": "ChIJR3nGs7KK1moRANWMIXVWBAU",
    "name": "Deer Park",
    "longitude": 144.7747728,
    "latitude": -37.7702749
  },
  {
    "code": "9aaa579e2cca6f9e8e55b2d6234fb41f",
    "placeId": "ChIJfzxKddAM1moRoOGMIXVWBAU",
    "name": "Seaford",
    "longitude": 145.1310544,
    "latitude": -38.110582
  },
  {
    "code": "fcd7cb171373f9cb72eb4f9df4ed3647",
    "placeId": "ChIJQQqwwUFg1moRoNeMIXVWBAU",
    "name": "Sunshine West",
    "longitude": 144.818759,
    "latitude": -37.7946685
  },
  {
    "code": "224c9e97f19425591ffe3f43804b5cf5",
    "placeId": "ChIJbdyyKBNE1moRwPaMIXVWBAU",
    "name": "Alphington",
    "longitude": 145.0322776,
    "latitude": -37.7805624
  },
  {
    "code": "dc7690aa07c4825dbdd077a18980b05f",
    "placeId": "ChIJwwOmKjL11moRcNiMIXVWBAU",
    "name": "Tarneit",
    "longitude": 144.6722205,
    "latitude": -37.8362006
  },
  {
    "code": "a17c2349501426d515f43f95360c6a87",
    "placeId": "ChIJmT54ucxp1moRwNqMIXVWBAU",
    "name": "Armadale",
    "longitude": 145.0206967,
    "latitude": -37.8554995
  },
  {
    "code": "7d4c0ac5bb427a3baf66c40cb95d9426",
    "placeId": "ChIJLTl0Y6g-1moRQNqMIXVWBAU",
    "name": "Wantirna",
    "longitude": 145.2289289,
    "latitude": -37.8479567
  },
  {
    "code": "a23998b02abe5996b84fedd0187e29a9",
    "placeId": "ChIJSzOKInBn1moRkOiMIXVWBAU",
    "name": "Newport",
    "longitude": 144.8830489,
    "latitude": -37.8424548
  },
  {
    "code": "bd8d0e59b2dbb429e4ce1a63d7b8c3e4",
    "placeId": "ChIJAamjdcRA1moRAP6MIXVWBAU",
    "name": "Mont Albert",
    "longitude": 145.1077021,
    "latitude": -37.8160228
  },
  {
    "code": "ced5f568e77c900b12515f0a928fdc1b",
    "placeId": "ChIJb9p7rVpo1moR4PiMIXVWBAU",
    "name": "Balaclava",
    "longitude": 144.9944005,
    "latitude": -37.8688878
  },
  {
    "code": "a3d93c879a9b39e1953855d3dbb9e349",
    "placeId": "ChIJacMaypFC1moRMP2MIXVWBAU",
    "name": "Cremorne",
    "longitude": 144.9933619,
    "latitude": -37.8301738
  },
  {
    "code": "e19261b1dbc5183232f40f744c0a61ca",
    "placeId": "ChIJnyeQi-s01moRoM-MIXVWBAU",
    "name": "Hurstbridge",
    "longitude": 145.1944322,
    "latitude": -37.6374085
  },
  {
    "code": "ef9fbb0d672ef3d87d106fba7faddd12",
    "placeId": "ChIJL6036CoW1moRkN2MIXVWBAU",
    "name": "Rowville",
    "longitude": 145.2330751,
    "latitude": -37.9279826
  },
  {
    "code": "b3adbc6f0f1ec649bba1d04e2932d9e0",
    "placeId": "ChIJRw1m_PxJ1moRUNCMIXVWBAU",
    "name": "Diamond Creek",
    "longitude": 145.1496294,
    "latitude": -37.6729738
  },
  {
    "code": "65399117ef63c533110ac74788d48ab3",
    "placeId": "ChIJWR-ehumJ1moRUNqMIXVWBAU",
    "name": "Laverton",
    "longitude": 144.7710013,
    "latitude": -37.8635199
  },
  {
    "code": "f2601a403b918d174968772acd7ea92e",
    "placeId": "ChIJY6z6Z-H01moRsPaMIXVWBAU",
    "name": "Caroline Springs",
    "longitude": 144.7356782,
    "latitude": -37.7431281
  },
  {
    "code": "8c45c1b601f3ed3add1140c99b098ab9",
    "placeId": "ChIJMxupJ_tG1moRYNWMIXVWBAU",
    "name": "Bulleen",
    "longitude": 145.0893777,
    "latitude": -37.769911
  },
  {
    "code": "ab5745e39b35cefb6f9a22942391106e",
    "placeId": "ChIJ1wik0Wxp1moRUNyMIXVWBAU",
    "name": "Caulfield South",
    "longitude": 145.0205148,
    "latitude": -37.8945334
  },
  {
    "code": "688b2b1ba9551c0ea51d4f0cead24b46",
    "placeId": "ChIJ9-Vp1KZp1moRUNuMIXVWBAU",
    "name": "Caulfield North",
    "longitude": 145.0247002,
    "latitude": -37.8726442
  },
  {
    "code": "cb1c69bb5aab0e53cfbc9d4b2970af73",
    "placeId": "ChIJMQPcIAwU1moRoN6MIXVWBAU",
    "name": "Noble Park",
    "longitude": 145.1733926,
    "latitude": -37.9650097
  },
  {
    "code": "3c121c8614b33c467ee734859b681308",
    "placeId": "ChIJvadHC5s71moR4NmMIXVWBAU",
    "name": "Bayswater",
    "longitude": 145.2704817,
    "latitude": -37.8426014
  },
  {
    "code": "4055887c2676e7f9cf06aa5aad5b5fb7",
    "placeId": "ChIJNXKUTzpn1moRIOiMIXVWBAU",
    "name": "Spotswood",
    "longitude": 144.8863391,
    "latitude": -37.8298089
  },
  {
    "code": "59f6027652c9b32b854ac88693fd8a2a",
    "placeId": "ChIJ1YQ5tfdn1moRAAGNIXVWBAU",
    "name": "South Wharf",
    "longitude": 144.9523191,
    "latitude": -37.8243947
  },
  {
    "code": "5940a1799678eed2bca3a22f4c710f78",
    "placeId": "ChIJA576x2c_1moRoNmMIXVWBAU",
    "name": "Blackburn South",
    "longitude": 145.151231,
    "latitude": -37.8388667
  },
  {
    "code": "a1e5b39e26c8aa0f1f727fc5c749ab60",
    "placeId": "ChIJoc3ovJQ41moRANiMIXVWBAU",
    "name": "Blackburn North",
    "longitude": 145.1586444,
    "latitude": -37.8064051
  },
  {
    "code": "1715bbd9322e869f7affdede055a4ef4",
    "placeId": "ChIJtxBz3nk_1moRoNqMIXVWBAU",
    "name": "Burwood East",
    "longitude": 145.1519822,
    "latitude": -37.8526163
  },
  {
    "code": "700e09c9d199f176c7d7e321842f0563",
    "placeId": "ChIJ0ft3HKJs1moRcN6MIXVWBAU",
    "name": "Clayton South",
    "longitude": 145.1261833,
    "latitude": -37.9414172
  },
  {
    "code": "696a7c6fef08ab49fc7af92532bb4f6f",
    "placeId": "ChIJyyLszdZF1moRENSMIXVWBAU",
    "name": "Rosanna",
    "longitude": 145.0683729,
    "latitude": -37.7409649
  },
  {
    "code": "1410379c95bbf4f58b482b078dba6f1e",
    "placeId": "ChIJX199D6051moRcNaMIXVWBAU",
    "name": "Donvale",
    "longitude": 145.1791034,
    "latitude": -37.7963916
  },
  {
    "code": "a34234c858213bc23622ae16c6f66e6f",
    "placeId": "ChIJS5H6OPAP1moRZm7RtdoqWLM",
    "name": "Cranbourne East",
    "longitude": 145.3071234,
    "latitude": -38.1033891
  },
  {
    "code": "a55cb3f20cb922518d63c87cce70a4c6",
    "placeId": "ChIJfQdMbzJF1moR8NGMIXVWBAU",
    "name": "Fawkner",
    "longitude": 144.9669297,
    "latitude": -37.7072243
  },
  {
    "code": "04156407782c71065ae624d44cd71dd2",
    "placeId": "ChIJPazk00E71moR8NmMIXVWBAU",
    "name": "Boronia",
    "longitude": 145.2856552,
    "latitude": -37.8626744
  },
  {
    "code": "787b47ea892e5f367a419e5d5b810602",
    "placeId": "ChIJHyqi4_sM1moRcOGMIXVWBAU",
    "name": "Carrum Downs",
    "longitude": 145.1726257,
    "latitude": -38.0994897
  },
  {
    "code": "c6b976d2b3f67524ac7b830aa3a37786",
    "placeId": "ChIJ3xnBl_8Q1moREPyMIXVWBAU",
    "name": "Cranbourne North",
    "longitude": 145.2714705,
    "latitude": -38.074153
  },
  {
    "code": "afd6a9959d4fe0ad95ad027025af96ad",
    "placeId": "ChIJQ_3Gfb5e1moRYNOMIXVWBAU",
    "name": "Keilor East",
    "longitude": 144.8637658,
    "latitude": -37.739801
  },
  {
    "code": "a690bf00782319a663849086d2d8e3fc",
    "placeId": "ChIJQbFLp5hy1moREOGMIXVWBAU",
    "name": "Edithvale",
    "longitude": 145.1090316,
    "latitude": -38.0385629
  },
  {
    "code": "1315a410533e0a292967090eb92dabba",
    "placeId": "ChIJZbBNUBBr1moR4N2MIXVWBAU",
    "name": "Oakleigh South",
    "longitude": 145.0951545,
    "latitude": -37.9255978
  },
  {
    "code": "16ff6d2454a34b7891dda6733bbb05a8",
    "placeId": "ChIJmZyUbAUQ1moREOKMIXVWBAU",
    "name": "Cranbourne South",
    "longitude": 145.2435138,
    "latitude": -38.1584939
  },
  {
    "code": "cf56cfda2e9e6766c2eb8ae707a7799d",
    "placeId": "ChIJqSZZEddF1moRsP2MIXVWBAU",
    "name": "Heidelberg West",
    "longitude": 145.0428381,
    "latitude": -37.7415712
  },
  {
    "code": "d061f53050389fe08f3011bb9ad7a2d0",
    "placeId": "ChIJAxYK7wZP1moRsNCMIXVWBAU",
    "name": "Lalor",
    "longitude": 145.0165638,
    "latitude": -37.6655588
  },
  {
    "code": "9cab7140835b243076d444828e19fb4b",
    "placeId": "ChIJmT3XdyE61moRwNWMIXVWBAU",
    "name": "Ringwood North",
    "longitude": 145.2352519,
    "latitude": -37.795271
  },
  {
    "code": "d873dab05d706a1ad2dbac25b4b83097",
    "placeId": "ChIJF5Dx4bc-1moRYNqMIXVWBAU",
    "name": "Vermont South",
    "longitude": 145.1836152,
    "latitude": -37.856512
  },
  {
    "code": "8c0632a6db593cd7641956defd45f136",
    "placeId": "ChIJVxb4kQ1f1moRcNWMIXVWBAU",
    "name": "Truganina",
    "longitude": 144.7486991,
    "latitude": -37.8248334
  },
  {
    "code": "ca1510ce5634d6d4f6d0462be9d39518",
    "placeId": "ChIJgXVZnHtt1moRYOCMIXVWBAU",
    "name": "Aspendale",
    "longitude": 145.0988172,
    "latitude": -38.0196821
  },
  {
    "code": "27422bd301b47a9df05d9693f389e03a",
    "placeId": "ChIJNUl8dkEO1moRIP6MIXVWBAU",
    "name": "Cranbourne West",
    "longitude": 145.2538591,
    "latitude": -38.1022116
  },
  {
    "code": "a5e03322c41cce4ad90482125daa53e3",
    "placeId": "ChIJW1EUYK5R1moRkM-MIXVWBAU",
    "name": "Roxburgh Park",
    "longitude": 144.9278395,
    "latitude": -37.6191629
  },
  {
    "code": "605ae50ada9cdc51adb0194901ab11a9",
    "placeId": "ChIJEby-mk5e1moRIPiMIXVWBAU",
    "name": "Sunshine North",
    "longitude": 144.8310751,
    "latitude": -37.7642525
  },
  {
    "code": "89825ca8f3cd330f778c8a7e4ce2aa0a",
    "placeId": "ChIJd5QcKatY1moRsNGMIXVWBAU",
    "name": "Taylors Lakes",
    "longitude": 144.7811982,
    "latitude": -37.6973477
  },
  {
    "code": "f7d99d3b84e68f6c871611fa85a8ae7d",
    "placeId": "ChIJU333GIxp1moRAPiMIXVWBAU",
    "name": "Caulfield East",
    "longitude": 145.0445735,
    "latitude": -37.8778697
  },
  {
    "code": "35d2d71ac8adbb83f6f4c4bc58cf2ec9",
    "placeId": "ChIJUc3K9kxp1moRsN2MIXVWBAU",
    "name": "Bentleigh East",
    "longitude": 145.0590176,
    "latitude": -37.9211594
  },
  {
    "code": "e7a147029aa6b4542ec8247ec52aac0e",
    "placeId": "ChIJUY5dfF9n1moRcPiMIXVWBAU",
    "name": "Seddon",
    "longitude": 144.8917354,
    "latitude": -37.8066635
  },
  {
    "code": "3452a0f81e6735a54f963a51a8fa0bd2",
    "placeId": "ChIJJwdZpXZc1moRINOMIXVWBAU",
    "name": "Essendon North",
    "longitude": 144.9014161,
    "latitude": -37.737462
  },
  {
    "code": "c6bb35ece8e564fc0a85bbfd5d409a21",
    "placeId": "ChIJe1TCrrRE1moRENKMIXVWBAU",
    "name": "Glenroy",
    "longitude": 144.9161373,
    "latitude": -37.7062465
  },
  {
    "code": "4c7292007e7d537d148a22e2b7c40486",
    "placeId": "ChIJVw-CZnQV1moRgN2MIXVWBAU",
    "name": "Mulgrave",
    "longitude": 145.158814,
    "latitude": -37.9187107
  },
  {
    "code": "bf68272945562fd117e75eb3c93dd6c5",
    "placeId": "ChIJH-0Qrcpm1moRAOmMIXVWBAU",
    "name": "Williamstown North",
    "longitude": 144.8628571,
    "latitude": -37.851972
  },
  {
    "code": "19484cc48fb99c20bc4ee016e7938fa0",
    "placeId": "ChIJ5zKWCRoT1moRwN-MIXVWBAU",
    "name": "Keysborough",
    "longitude": 145.1743519,
    "latitude": -37.9989202
  },
  {
    "code": "dc7e24a3d42eb87e22eada9b9bf28022",
    "placeId": "ChIJr_IKWso81moR4NyMIXVWBAU",
    "name": "Upper Ferntree Gully",
    "longitude": 145.3092363,
    "latitude": -37.8954903
  },
  {
    "code": "09e47df86ad7ff2bf082105ad231799d",
    "placeId": "ChIJU8N4lzdq1moRoNyMIXVWBAU",
    "name": "Murrumbeena",
    "longitude": 145.070895,
    "latitude": -37.8978307
  },
  {
    "code": "42ca9cd94039426e6c4ebd0f8a772f69",
    "placeId": "ChIJF4mnnmdu1moRkN-MIXVWBAU",
    "name": "Beaumaris",
    "longitude": 145.0418067,
    "latitude": -37.9825379
  },
  {
    "code": "24058c4b74af7497f86e8cfeb9af0372",
    "placeId": "ChIJMTS1RzlJ1moRgNCMIXVWBAU",
    "name": "Mill Park",
    "longitude": 145.071113,
    "latitude": -37.6703725
  },
  {
    "code": "93bda96a6a37581a005d2039679dfd4a",
    "placeId": "ChIJv9ZOIRdC1moR8PeMIXVWBAU",
    "name": "Kooyong",
    "longitude": 145.0360838,
    "latitude": -37.840837
  },
  {
    "code": "f4fd3d42b441ae7917f865ac00aefd81",
    "placeId": "ChIJ20tO69SJ1moRcNuMIXVWBAU",
    "name": "Altona Meadows",
    "longitude": 144.7775818,
    "latitude": -37.8715626
  },
  {
    "code": "54edd7eaced224e0c4e0010e5f4b2f1c",
    "placeId": "ChIJrUQfOp8-1moRMNuMIXVWBAU",
    "name": "Wantirna South",
    "longitude": 145.2329617,
    "latitude": -37.87695180000001
  },
  {
    "code": "1f892a7e4ebe5bb5357f61e9cd9e1cad",
    "placeId": "ChIJLUlSSKht1moRQPqMIXVWBAU",
    "name": "Parkdale",
    "longitude": 145.0767488,
    "latitude": -37.9937732
  },
  {
    "code": "91e7f860ab51aba2256069b1e3cf6c7e",
    "placeId": "ChIJhVevbEEZ1moRgOCMIXVWBAU",
    "name": "Beaconsfield",
    "longitude": 145.3699169,
    "latitude": -38.0478022
  },
  {
    "code": "2ad2ed621b9e2a7b72452eb7227918dd",
    "placeId": "ChIJiwWD3_JI1moR0NGMIXVWBAU",
    "name": "Watsonia",
    "longitude": 145.0828399,
    "latitude": -37.7101374
  },
  {
    "code": "be8ab1f8f2e095b06bb2a33de3b3ac65",
    "placeId": "ChIJlyhS8Fdo1moR8PiMIXVWBAU",
    "name": "Ripponlea",
    "longitude": 144.9953278,
    "latitude": -37.8765878
  },
  {
    "code": "c51464235bf5b782aed1795faef7dad6",
    "placeId": "ChIJNwKTjb9g1moRUPiMIXVWBAU",
    "name": "Brooklyn",
    "longitude": 144.8465361,
    "latitude": -37.8173492
  },
  {
    "code": "b72ab7725c786cbcbca8ad2e8cf09527",
    "placeId": "ChIJf1qY9So-1moREN2MIXVWBAU",
    "name": "Wheelers Hill",
    "longitude": 145.1890123,
    "latitude": -37.9067871
  },
  {
    "code": "111945efd00238deef63601e6e4de57f",
    "placeId": "ChIJtzXwV3tp1moRMN2MIXVWBAU",
    "name": "Ormond",
    "longitude": 145.0439649,
    "latitude": -37.9044154
  },
  {
    "code": "28026022e0c447baf5e5e9606c0976f0",
    "placeId": "ChIJ9-9EejQb1moRgOGMIXVWBAU",
    "name": "Clyde",
    "longitude": 145.3217471,
    "latitude": -38.1284823
  },
  {
    "code": "1c972adcf00c5689d334fa9c5b18ffbd",
    "placeId": "ChIJgZ672kFf1moR8NKMIXVWBAU",
    "name": "Keilor Downs",
    "longitude": 144.8077931,
    "latitude": -37.7233543
  },
  {
    "code": "fe0cf4d5f7a7ce64325e99a6ff3429f0",
    "placeId": "ChIJRSmniRtQ1moRYNCMIXVWBAU",
    "name": "Campbellfield",
    "longitude": 144.9556482,
    "latitude": -37.6714587
  },
  {
    "code": "43e708a7b448bb3d7db992e6675b5996",
    "placeId": "ChIJx47WwjBA1moRENuMIXVWBAU",
    "name": "Ashwood",
    "longitude": 145.1054275,
    "latitude": -37.8683075
  },
  {
    "code": "aa9ea1c055601c0fb552923ca80c594b",
    "placeId": "ChIJnRGcI7VQ1moRsM-MIXVWBAU",
    "name": "Greenvale",
    "longitude": 144.8809167,
    "latitude": -37.6399652
  },
  {
    "code": "64cfea6e96110ee19feca3fdf0645563",
    "placeId": "ChIJh9PRpCBK1moRcNCMIXVWBAU",
    "name": "Plenty",
    "longitude": 145.120526,
    "latitude": -37.6664237
  },
  {
    "code": "eb323f667a1a009990cec2748ff240e0",
    "placeId": "ChIJ_Ws6ODoj1moR8NyMIXVWBAU",
    "name": "Upwey",
    "longitude": 145.3298845,
    "latitude": -37.9022222
  },
  {
    "code": "042c24e173f03f8ea1cf6ec92ca5684e",
    "placeId": "ChIJXcAx5jND1moRIP2MIXVWBAU",
    "name": "Princes Hill",
    "longitude": 144.9670038,
    "latitude": -37.7815192
  },
  {
    "code": "8d1757327300dc903353679473744ee7",
    "placeId": "ChIJjVCZwkhp1moR4N6MIXVWBAU",
    "name": "Highett",
    "longitude": 145.0460123,
    "latitude": -37.9490959
  },
  {
    "code": "7ca66ff89a5cb40436e98498b55f1ef0",
    "placeId": "ChIJf-qaCFI11moREM-MIXVWBAU",
    "name": "Doreen",
    "longitude": 145.1283462,
    "latitude": -37.5864808
  },
  {
    "code": "762383580fedaff347bff27034c786ef",
    "placeId": "ChIJvz8ZDQaQ1moRIOmMIXVWBAU",
    "name": "Wyndham Vale",
    "longitude": 144.6213448,
    "latitude": -37.8892516
  },
  {
    "code": "3b9f56c023f7bd56a781d27f044bd5ef",
    "placeId": "ChIJnSWsl6cU1moRQN-MIXVWBAU",
    "name": "Springvale South",
    "longitude": 145.1485377,
    "latitude": -37.9709927
  },
  {
    "code": "8531be81169dd42c2d3944773e8c4c57",
    "placeId": "ChIJtXsfvc9y1moRUPuMIXVWBAU",
    "name": "Bonbeach",
    "longitude": 145.1260029,
    "latitude": -38.0604328
  },
  {
    "code": "c3306470e66e776f8934b0c7d2e6d434",
    "placeId": "ChIJOwYM0FVP1moRoNKMIXVWBAU",
    "name": "Macleod",
    "longitude": 145.0672046,
    "latitude": -37.7248363
  },
  {
    "code": "1a1c96ae74c5f062d72c602a859fa739",
    "placeId": "ChIJO4IUqINp1moRwNyMIXVWBAU",
    "name": "Glen Huntly",
    "longitude": 145.0419257,
    "latitude": -37.8893948
  },
  {
    "code": "5ab4f262d28ec5024d36a7917efe4846",
    "placeId": "ChIJk7DMIYxD1moRsNaMIXVWBAU",
    "name": "Ivanhoe East",
    "longitude": 145.0602831,
    "latitude": -37.7730009
  },
  {
    "code": "5206861718f8abb257a470e55d53f805",
    "placeId": "ChIJecYSYzpI1moRwNKMIXVWBAU",
    "name": "Montmorency",
    "longitude": 145.1233671,
    "latitude": -37.7181881
  },
  {
    "code": "5ce2cf7b908e09f3f28f28075f75f610",
    "placeId": "ChIJ9b6MaHFG1moRoNOMIXVWBAU",
    "name": "Heidelberg Heights",
    "longitude": 145.0525538,
    "latitude": -37.7426485
  },
  {
    "code": "469ef24561af455724399aecd905030a",
    "placeId": "ChIJq6uzHik21moRkNGMIXVWBAU",
    "name": "Eltham North",
    "longitude": 145.1444175,
    "latitude": -37.6980273
  },
  {
    "code": "ed9e3a05788b7dd46d2490e33088bbf0",
    "placeId": "ChIJsxXQwu1q1moRMPmMIXVWBAU",
    "name": "Huntingdale",
    "longitude": 145.1107218,
    "latitude": -37.9078779
  },
  {
    "code": "3072f3f6496d964463fc6c71697e9a07",
    "placeId": "ChIJGTu3gpxb1moRsNKMIXVWBAU",
    "name": "Strathmore",
    "longitude": 144.9187635,
    "latitude": -37.7342495
  },
  {
    "code": "68bade878c1d2a8f26b1ca141796c853",
    "placeId": "ChIJZ_LZUsMv1moRQNaMIXVWBAU",
    "name": "Mooroolbark",
    "longitude": 145.3111028,
    "latitude": -37.7851089
  },
  {
    "code": "7205bfd0bc4550799477345560faa191",
    "placeId": "ChIJmURDOmpB1moRpyw0EwsUaLA",
    "name": "Deepdene",
    "longitude": 145.0654465,
    "latitude": -37.8109391
  },
  {
    "code": "c38959229e83c3af0c8c2d9273a5847f",
    "placeId": "ChIJTZfMzCYY1moRYN-MIXVWBAU",
    "name": "Narre Warren North",
    "longitude": 145.3138892,
    "latitude": -37.9820135
  },
  {
    "code": "2ba3579f067d102c9f394e1f73be45c4",
    "placeId": "ChIJc9V6hmkw1moRYNaMIXVWBAU",
    "name": "Croydon North",
    "longitude": 145.2869678,
    "latitude": -37.7696503
  },
  {
    "code": "f47f8c117d1182d13edb4c8ce2a6b879",
    "placeId": "ChIJ1W41wiIX1moR4N-MIXVWBAU",
    "name": "Hallam",
    "longitude": 145.273282,
    "latitude": -38.0063441
  },
  {
    "code": "47807885cbb45a9f13eca6497ea53fb9",
    "placeId": "ChIJseEVDupq1moRIPmMIXVWBAU",
    "name": "Oakleigh East",
    "longitude": 145.1168292,
    "latitude": -37.9077849
  },
  {
    "code": "c9f4d8852fbc3d1290e5ed5c3d9a3110",
    "placeId": "ChIJDfNT0SRc1moRoNSMIXVWBAU",
    "name": "Essendon West",
    "longitude": 144.886126,
    "latitude": -37.7535628
  },
  {
    "code": "e80220d8582018eab51883fcec1298a9",
    "placeId": "ChIJSTEBdpsQ1moR8OCMIXVWBAU",
    "name": "Narre Warren South",
    "longitude": 145.3013545,
    "latitude": -38.0535338
  },
  {
    "code": "66882d5966d5fd1c934ec767333b8dfe",
    "placeId": "ChIJi0op6tpH1moRcNOMIXVWBAU",
    "name": "Lower Plenty",
    "longitude": 145.1153014,
    "latitude": -37.7379654
  },
  {
    "code": "4edf34c5ac32ddcb95dc0a106b6e2f8e",
    "placeId": "ChIJ6btARadH1moRENWMIXVWBAU",
    "name": "Templestowe Lower",
    "longitude": 145.118525,
    "latitude": -37.7578654
  },
  {
    "code": "08d923ca59574139d0a181b719d309e6",
    "placeId": "ChIJ4-HTCqmJ1moR8ACNIXVWBAU",
    "name": "Williams Landing",
    "longitude": 144.7479385,
    "latitude": -37.8622254
  },
  {
    "code": "a55e02592250b8fa59d898b7f7bd0324",
    "placeId": "ChIJ1br_QEVq1moREPmMIXVWBAU",
    "name": "Hughesdale",
    "longitude": 145.0848814,
    "latitude": -37.8947609
  },
  {
    "code": "f3752ec1221a7eaacdec749360e328a8",
    "placeId": "ChIJSzcjyrxg1moRQPyMIXVWBAU",
    "name": "Tottenham",
    "longitude": 144.8586828,
    "latitude": -37.8100003
  },
  {
    "code": "ea1d831745744174cd55757121b9fc3c",
    "placeId": "ChIJi51aRyM_1moRANqMIXVWBAU",
    "name": "Forest Hill",
    "longitude": 145.1727369,
    "latitude": -37.8347413
  },
  {
    "code": "ab861297e50471f2ccc2b0ff789ab4b5",
    "placeId": "ChIJ3f8dCxxp1moRUPqMIXVWBAU",
    "name": "Gardenvale",
    "longitude": 145.0076561,
    "latitude": -37.8978502
  },
  {
    "code": "773c15a03b20255e9e43c24ed2fb8841",
    "placeId": "ChIJ8Y-W5GxE1moRcP6MIXVWBAU",
    "name": "Eaglemont",
    "longitude": 145.060915,
    "latitude": -37.7614474
  },
  {
    "code": "bd9ea65e652ffdc7ab028849a57ff19b",
    "placeId": "ChIJhxTZhPA61moRkNiMIXVWBAU",
    "name": "Croydon South",
    "longitude": 145.2693411,
    "latitude": -37.8135625
  },
  {
    "code": "59ce1c7cf894b2fa2562b565d43b8e79",
    "placeId": "ChIJW3aDghQj1moRAN2MIXVWBAU",
    "name": "Tecoma",
    "longitude": 145.3439874,
    "latitude": -37.9066054
  },
  {
    "code": "80b995eeb86f6f9d6d6b44b52ae4ef1e",
    "placeId": "ChIJawID8rI91moRwNuMIXVWBAU",
    "name": "Knoxfield",
    "longitude": 145.2472157,
    "latitude": -37.896518
  },
  {
    "code": "e2a01b8d749817f6fe141a142a91ddfb",
    "placeId": "ChIJj3kWA0U91moRoN2MIXVWBAU",
    "name": "Lysterfield",
    "longitude": 145.2779171,
    "latitude": -37.9185923
  },
  {
    "code": "10f6902212f75db1dcf6ee2545f96373",
    "placeId": "ChIJzwyZDWhb1moRQNSMIXVWBAU",
    "name": "Pascoe Vale South",
    "longitude": 144.9384576,
    "latitude": -37.7457735
  },
  {
    "code": "a3d2aa8f902836b96407e0a859428417",
    "placeId": "ChIJb2pq4Scb1moRIPyMIXVWBAU",
    "name": "Clyde North",
    "longitude": 145.3287992,
    "latitude": -38.1108098
  },
  {
    "code": "aae4f9e9cbf5575e0e9502800c654981",
    "placeId": "ChIJQ-aoCuFc1moRAP2MIXVWBAU",
    "name": "Travancore",
    "longitude": 144.9363143,
    "latitude": -37.7792935
  },
  {
    "code": "f706229c418e409808b9e33a5e9e7605",
    "placeId": "ChIJQYBcaUol1moR0NeMIXVWBAU",
    "name": "Kilsyth",
    "longitude": 145.3146756,
    "latitude": -37.8027205
  },
  {
    "code": "c9d4f6cad4b989eab66c386194988569",
    "placeId": "ChIJT41yelFn1moRYPiMIXVWBAU",
    "name": "Kingsville",
    "longitude": 144.8800502,
    "latitude": -37.8086674
  },
  {
    "code": "0c87076913b676ed96286889171713a8",
    "placeId": "ChIJiys1t7NN1moRsM6MIXVWBAU",
    "name": "Wollert",
    "longitude": 145.0313459,
    "latitude": -37.6085118
  },
  {
    "code": "d134fd974e45a62250a58888afbfb508",
    "placeId": "ChIJ6bALP71p1moR0N2MIXVWBAU",
    "name": "McKinnon",
    "longitude": 145.0337951,
    "latitude": -37.9104488
  },
  {
    "code": "8d84543cf7dfd23bde60d5d07e98c489",
    "placeId": "ChIJwyDqdTEN1moRYOGMIXVWBAU",
    "name": "Patterson Lakes",
    "longitude": 145.1451427,
    "latitude": -38.0680914
  },
  {
    "code": "8655a3660770c6288811a97265ea953d",
    "placeId": "ChIJQxs70cA71moRcNmMIXVWBAU",
    "name": "Heathmont",
    "longitude": 145.2447702,
    "latitude": -37.829834
  },
  {
    "code": "8d0d1a16a26cba2a8a802fdfec28bbae",
    "placeId": "ChIJOVsbjklZ1moRMNKMIXVWBAU",
    "name": "Keilor Park",
    "longitude": 144.8514577,
    "latitude": -37.7200817
  },
  {
    "code": "e02766b58aa96a4edde253b6bf0b5a51",
    "placeId": "ChIJqzXoLKML1moRIOKMIXVWBAU",
    "name": "Langwarrin",
    "longitude": 145.1803134,
    "latitude": -38.1510042
  },
  {
    "code": "0b667b9480cb3a0fa45691c3b7b5ee1c",
    "placeId": "ChIJdTMn5PM21moR4NGMIXVWBAU",
    "name": "Research",
    "longitude": 145.1806162,
    "latitude": -37.7036462
  },
  {
    "code": "4dbf0f42b2baa197f67cf90acd187752",
    "placeId": "ChIJ-aOaJmJh1moRsPuMIXVWBAU",
    "name": "Seaholme",
    "longitude": 144.8438552,
    "latitude": -37.8659875
  },
  {
    "code": "0d088e2446d8a056fbd02d7c5967aa44",
    "placeId": "ChIJJSMsUAs-1moRMNyMIXVWBAU",
    "name": "Scoresby",
    "longitude": 145.2303752,
    "latitude": -37.8925388
  },
  {
    "code": "2708a775295a86d253af305b89f27b9b",
    "placeId": "ChIJiS68AXVQ1moRYP2MIXVWBAU",
    "name": "Dallas",
    "longitude": 144.9319545,
    "latitude": -37.6709849
  },
  {
    "code": "c18b00d836ede1b23617a7a09326fbf4",
    "placeId": "ChIJ3-a_CIlQ1moRQNCMIXVWBAU",
    "name": "Coolaroo",
    "longitude": 144.9370304,
    "latitude": -37.6612312
  },
  {
    "code": "acee2ac467aee400577e9335d5d1a432",
    "placeId": "ChIJSQQ3yHJa1moR0NCMIXVWBAU",
    "name": "Westmeadows",
    "longitude": 144.8989873,
    "latitude": -37.6776685
  },
  {
    "code": "e2d77c26e26ec96874adb52cb4b98159",
    "placeId": "ChIJ0-gE6rlu1moR4P6MIXVWBAU",
    "name": "Hampton East",
    "longitude": 145.0305184,
    "latitude": -37.9384236
  },
  {
    "code": "42e86d79e3df90f41a32855a9d959797",
    "placeId": "ChIJ7w6_fhpe1moRoNaMIXVWBAU",
    "name": "Braybrook",
    "longitude": 144.8587417,
    "latitude": -37.7859028
  },
  {
    "code": "ccfbf8571867317e288dc183c07ae145",
    "placeId": "ChIJsd6vubBs1moRMN-MIXVWBAU",
    "name": "Dingley Village",
    "longitude": 145.1226002,
    "latitude": -37.9757588
  },
  {
    "code": "ff33c3def4858342bb45f63c9fe6ec2c",
    "placeId": "ChIJW3kdbI1a1moRcP2MIXVWBAU",
    "name": "Jacana",
    "longitude": 144.9128564,
    "latitude": -37.687232
  },
  {
    "code": "6269272e893facdae70b0d543f1f8bb2",
    "placeId": "ChIJ2TEmT_YW1moR0N6MIXVWBAU",
    "name": "Endeavour Hills",
    "longitude": 145.2581884,
    "latitude": -37.9749174
  },
  {
    "code": "f198689a59f6a66642d96a7f40830b38",
    "placeId": "ChIJneVC6nYR1moRQOCMIXVWBAU",
    "name": "Hampton Park",
    "longitude": 145.2678469,
    "latitude": -38.032286
  },
  {
    "code": "dcdbf65a97437281399690b57b1c31ea",
    "placeId": "ChIJqWe3585h1moR4NiMIXVWBAU",
    "name": "Laverton North",
    "longitude": 144.7854874,
    "latitude": -37.8280477
  },
  {
    "code": "dd750a20469cf2602d77deb0b0ac5632",
    "placeId": "ChIJ-48iKBAu1moRUNKMIXVWBAU",
    "name": "Chirnside Park",
    "longitude": 145.3174608,
    "latitude": -37.7515262
  },
  {
    "code": "59d83d9005587049586c69cbbddf36df",
    "placeId": "ChIJGWAmPtpf1moRMPiMIXVWBAU",
    "name": "Albion",
    "longitude": 144.8154041,
    "latitude": -37.7756888
  },
  {
    "code": "6814ebd45a6edec3a1511c47e972d1c4",
    "placeId": "ChIJgyAnPYOK1moRcNeMIXVWBAU",
    "name": "Derrimut",
    "longitude": 144.7715559,
    "latitude": -37.7927082
  },
  {
    "code": "4109715c20e77f1b535a61daa58cff16",
    "placeId": "ChIJPfpWsHRW1moRkM6MIXVWBAU",
    "name": "Mickleham",
    "longitude": 144.9057665,
    "latitude": -37.5346231
  },
  {
    "code": "9daa7fda09ed3854162ad66d4d12661e",
    "placeId": "ChIJA7tTk6Bb1moRENOMIXVWBAU",
    "name": "Oak Park",
    "longitude": 144.91903,
    "latitude": -37.7165119
  },
  {
    "code": "4610d2812e1aab7749a14a7d93f32343",
    "placeId": "ChIJve4RVXxe1moRINWMIXVWBAU",
    "name": "Avondale Heights",
    "longitude": 144.8646254,
    "latitude": -37.7684005
  },
  {
    "code": "4d6ee3a98781ec76d04f28d229bde93d",
    "placeId": "ChIJBT1zwt9d1moRANeMIXVWBAU",
    "name": "Maidstone",
    "longitude": 144.8689053,
    "latitude": -37.7828499
  },
  {
    "code": "61fb013c2e0ebd91d658694d2840ea9e",
    "placeId": "ChIJH_qinBpc1moRANSMIXVWBAU",
    "name": "Niddrie",
    "longitude": 144.8858274,
    "latitude": -37.7409833
  },
  {
    "code": "6529991f03d73fa6d60e36c070910195",
    "placeId": "ChIJMU4X_-P11moRgNGMIXVWBAU",
    "name": "Sydenham",
    "longitude": 144.7644401,
    "latitude": -37.7014845
  },
  {
    "code": "7d27cd1baa98a2f6d19cf898ad5c8155",
    "placeId": "ChIJf-l2AKty1moRAOGMIXVWBAU",
    "name": "Chelsea Heights",
    "longitude": 145.1358899,
    "latitude": -38.0454639
  },
  {
    "code": "e8a91e16043e8075c423dc8d8e62a8f9",
    "placeId": "ChIJvXaGhu051moRINaMIXVWBAU",
    "name": "Park Orchards",
    "longitude": 145.2148636,
    "latitude": -37.77805499999999
  },
  {
    "code": "c2e59e32359a1e5ee0cdb4658390a69d",
    "placeId": "ChIJH_E1Nysx1moRQNOMIXVWBAU",
    "name": "North Warrandyte",
    "longitude": 145.2111268,
    "latitude": -37.7262448
  },
  {
    "code": "96022b525d4e1a581e577f6d72fd5d22",
    "placeId": "ChIJbXJaoqYW1moRcN-MIXVWBAU",
    "name": "Doveton",
    "longitude": 145.2394075,
    "latitude": -37.9876769
  },
  {
    "code": "f0ec0a4db670342493a4f9095a3b0984",
    "placeId": "ChIJYwm52TUM1moRwOGMIXVWBAU",
    "name": "Skye",
    "longitude": 145.1968162,
    "latitude": -38.1175378
  },
  {
    "code": "6db4ca20dcbefd5768006ea4bb2bbed3",
    "placeId": "ChIJq1YASsok1moRgNqMIXVWBAU",
    "name": "The Basin",
    "longitude": 145.3154872,
    "latitude": -37.8554394
  },
  {
    "code": "df618c3ff731dc4f4e05cde4833f9246",
    "placeId": "ChIJM0V6xvUi1moRYN6MIXVWBAU",
    "name": "Belgrave South",
    "longitude": 145.3595275,
    "latitude": -37.930598
  },
  {
    "code": "efe8fed5b8122b63e4045e82e079c3b1",
    "placeId": "ChIJH2ZADTRH1moREP6MIXVWBAU",
    "name": "Mont Albert North",
    "longitude": 145.1108602,
    "latitude": -37.8010393
  },
  {
    "code": "d67e8a60ee238161606dfe20d092e6ab",
    "placeId": "ChIJx42U2C5c1moRQP2MIXVWBAU",
    "name": "Aberfeldie",
    "longitude": 144.8956625,
    "latitude": -37.7603346
  },
  {
    "code": "c9293c7c9c15dcf2f38c2c41de46bcbd",
    "placeId": "ChIJhRNfsOFf1moRMNaMIXVWBAU",
    "name": "Ardeer",
    "longitude": 144.8018125,
    "latitude": -37.7728857
  },
  {
    "code": "7dca409ef26fec1f1ac88727a1758082",
    "placeId": "ChIJky8wcaX11moR8P6MIXVWBAU",
    "name": "Taylors Hill",
    "longitude": 144.7555173,
    "latitude": -37.7134968
  },
  {
    "code": "67c0d3d5215914bf379691a23ddba2ed",
    "placeId": "ChIJtQvnfO5F1moRANOMIXVWBAU",
    "name": "Kingsbury",
    "longitude": 145.0386962,
    "latitude": -37.7143364
  },
  {
    "code": "eca0e5e6f7dccced6e3a39f2e39224b5",
    "placeId": "ChIJ_d155zU61moR0NiMIXVWBAU",
    "name": "Bayswater North",
    "longitude": 145.2874972,
    "latitude": -37.8259876
  },
  {
    "code": "523fa37bfb12ceced0145d7b10cde5fb",
    "placeId": "ChIJrxOtB0sV1moRQPmMIXVWBAU",
    "name": "Notting Hill",
    "longitude": 145.1458611,
    "latitude": -37.9048347
  },
  {
    "code": "3e00c94f718691afe931cf9bd17e963b",
    "placeId": "ChIJ2WAD5L4w1moR0NSMIXVWBAU",
    "name": "Warrandyte South",
    "longitude": 145.2523502,
    "latitude": -37.7611439
  },
  {
    "code": "c394c7b32f36cc62ba99709042bcd329",
    "placeId": "ChIJB3vwd3wl1moRsNeMIXVWBAU",
    "name": "Montrose",
    "longitude": 145.3422414,
    "latitude": -37.80981939999999
  },
  {
    "code": "2bb4f5814b7cadc6548f415d56d372fe",
    "placeId": "ChIJwT_28Igw1moRUP6MIXVWBAU",
    "name": "Croydon Hills",
    "longitude": 145.2637942,
    "latitude": -37.7745507
  },
  {
    "code": "668f4cf3a6659b40a8ed771f2fb1940c",
    "placeId": "ChIJHZnE2zA01moRkNCMIXVWBAU",
    "name": "Wattle Glen",
    "longitude": 145.1829967,
    "latitude": -37.6625807
  },
  {
    "code": "02291275a2b84d83ab308df602f18f2d",
    "placeId": "ChIJn1JVWNpJ1moRm50eryPiJP0",
    "name": "St Helena",
    "longitude": 145.136789,
    "latitude": -37.6850191
  },
  {
    "code": "2b1752695d79b650c3f216aaa975e3e9",
    "placeId": "ChIJVxTA9pkw1moRMPyMIXVWBAU",
    "name": "Warranwood",
    "longitude": 145.2480685,
    "latitude": -37.773724
  },
  {
    "code": "d047a90264bac08c8e161b0eb01b3611",
    "placeId": "ChIJF6mPUPBI1moR4P2MIXVWBAU",
    "name": "Watsonia North",
    "longitude": 145.0853694,
    "latitude": -37.6960332
  },
  {
    "code": "7e8abfe3a8e5e54ffddbc2e05b65a65f",
    "placeId": "ChIJa_L-wwgx1moRYNKMIXVWBAU",
    "name": "Wonga Park",
    "longitude": 145.2714095,
    "latitude": -37.7358108
  },
  {
    "code": "8f191a87a2c394c8e436dfee73002bde",
    "placeId": "ChIJvz-QYCZt1moR8N-MIXVWBAU",
    "name": "Braeside",
    "longitude": 145.1189431,
    "latitude": -37.9987562
  },
  {
    "code": "25a3eddc8bf64b077fc2a31400960852",
    "placeId": "ChIJO_73CScv1moRkNaMIXVWBAU",
    "name": "Mount Evelyn",
    "longitude": 145.3822976,
    "latitude": -37.7823882
  },
  {
    "code": "cc6414b5f5e7217b19818d6611add9b6",
    "placeId": "ChIJGUvTsnQU1moRMP-MIXVWBAU",
    "name": "Noble Park North",
    "longitude": 145.1908285,
    "latitude": -37.954525
  },
  {
    "code": "eecb4ae3abd3779a78ea397d61b5f6dd",
    "placeId": "ChIJvU7LEENt1moRUOCMIXVWBAU",
    "name": "Aspendale Gardens",
    "longitude": 145.1178025,
    "latitude": -38.0231393
  },
  {
    "code": "42b466e7c4ee395aa3bc1a807acff91a",
    "placeId": "ChIJx1K_Ey1E1moR8PyMIXVWBAU",
    "name": "Bellfield",
    "longitude": 145.0394197,
    "latitude": -37.7534944
  },
  {
    "code": "1f09c7bd3faaf7ffa6caa412e2f37770",
    "placeId": "ChIJdZiqCTpI1moR0P2MIXVWBAU",
    "name": "Briar Hill",
    "longitude": 145.1192676,
    "latitude": -37.7085749
  },
  {
    "code": "2d369bc925043bcec1e82ccb2788a048",
    "placeId": "ChIJiUfqhJoR1moRAP-MIXVWBAU",
    "name": "Lynbrook",
    "longitude": 145.2559478,
    "latitude": -38.0510589
  },
  {
    "code": "2f3556edd495d9f4b55a07dca498a763",
    "placeId": "ChIJgwu1ADD11moR8NOMIXVWBAU",
    "name": "Burnside",
    "longitude": 144.7485686,
    "latitude": -37.7469113
  },
  {
    "code": "9902f6e589e4775abbd34570adc3b090",
    "placeId": "ChIJtZZfXVuI1moRoPuMIXVWBAU",
    "name": "Seabrook",
    "longitude": 144.7572402,
    "latitude": -37.8804219
  },
  {
    "code": "e3b0ee9ccb1e8b0ed3babf2ed64e138f",
    "placeId": "ChIJD4_co4ts1moRwN6MIXVWBAU",
    "name": "Heatherton",
    "longitude": 145.0835119,
    "latitude": -37.9539982
  },
  {
    "code": "e3eed1a65366b00b15e303fcdaf32bd9",
    "placeId": "ChIJI3Zs-m5r1moRUN6MIXVWBAU",
    "name": "Clarinda",
    "longitude": 145.1024233,
    "latitude": -37.9412163
  },
  {
    "code": "53adc61c747c964956f6627b575ee5d3",
    "placeId": "ChIJX4dqdIlQ1moRENCMIXVWBAU",
    "name": "Meadow Heights",
    "longitude": 144.922,
    "latitude": -37.65
  },
  {
    "code": "86d499fbe92707d43a3f70ae62cad9bf",
    "placeId": "ChIJHTRMTC1n1moRQPiMIXVWBAU",
    "name": "South Kingsville",
    "longitude": 144.8695973,
    "latitude": -37.8310243
  },
  {
    "code": "bea8072e4d7dd6808ae3eb1115441aa1",
    "placeId": "ChIJKRGxDjZa1moRoPyMIXVWBAU",
    "name": "Gladstone Park",
    "longitude": 144.8951801,
    "latitude": -37.6926696
  },
  {
    "code": "bbe2ae9ef541f6726e529a178b2979df",
    "placeId": "ChIJoRA-KMtH1moR0NOMIXVWBAU",
    "name": "Viewbank",
    "longitude": 145.0915563,
    "latitude": -37.7397321
  },
  {
    "code": "f2d2ccaea7469a7050c5a8307749f74d",
    "placeId": "ChIJ2_azESZb1moRUP2MIXVWBAU",
    "name": "Hadfield",
    "longitude": 144.9501406,
    "latitude": -37.7105356
  },
  {
    "code": "52978c42c147e908622103d2285a49f4",
    "placeId": "ChIJseZqiH9I1moRwP2MIXVWBAU",
    "name": "Yallambie",
    "longitude": 145.1037659,
    "latitude": -37.7222123
  },
  {
    "code": "6aeda8592c4475cbc444eaccba26c29b",
    "placeId": "ChIJyfKHk-Mi1moRIN6MIXVWBAU",
    "name": "Belgrave Heights",
    "longitude": 145.3479199,
    "latitude": -37.9244173
  },
  {
    "code": "4fd263ac0e4408e3e46b228ac4903d1c",
    "placeId": "ChIJl724Dzj01moRENGMIXVWBAU",
    "name": "Hillside",
    "longitude": 144.7442073,
    "latitude": -37.6920638
  },
  {
    "code": "cbd46744bdf41756e7c91fe5731a6159",
    "placeId": "ChIJeZXr1tk61moRQNmMIXVWBAU",
    "name": "Kilsyth South",
    "longitude": 145.3068603,
    "latitude": -37.8336968
  },
  {
    "code": "05e843f95725c6e8473e4dab4df5aee5",
    "placeId": "ChIJe7937LNY1moRAPqMIXVWBAU",
    "name": "Keilor Lodge",
    "longitude": 144.7978052,
    "latitude": -37.69754
  },
  {
    "code": "7736aa4276f68f74413192a510c2277c",
    "placeId": "ChIJj9qhT4kR1moR0OCMIXVWBAU",
    "name": "Lyndhurst",
    "longitude": 145.2467167,
    "latitude": -38.0705008
  },
  {
    "code": "b23af93b8883a9b37520ea2e85924d8e",
    "placeId": "ChIJgdj3iZtb1moREP2MIXVWBAU",
    "name": "Strathmore Heights",
    "longitude": 144.8969949,
    "latitude": -37.7130105
  },
  {
    "code": "42da67da82bb02eb67378556c6e29d4a",
    "placeId": "ChIJQWDn6DZt1moREP-MIXVWBAU",
    "name": "Waterways",
    "longitude": 145.1298535,
    "latitude": -38.0159002
  },
  {
    "code": "16aab42fb1ac950a6369942b493e0d0e",
    "placeId": "ChIJqfgDNOqa1moRrJPAb0eXEFw",
    "name": "Manor Lakes",
    "longitude": 144.5972742,
    "latitude": -37.869741
  },
  {
    "code": "498ded8b3088167989d1b16973b89edb",
    "placeId": "ChIJQ02lKwNf1moRkNOMIXVWBAU",
    "name": "Kealba",
    "longitude": 144.8238362,
    "latitude": -37.7327512
  },
  {
    "code": "cd9072c66ceca567e6f78a1e53739aed",
    "placeId": "ChIJ38iUzXD11moRgNOMIXVWBAU",
    "name": "Kings Park",
    "longitude": 144.7662246,
    "latitude": -37.7334692
  },
  {
    "code": "9e6ec4f11ada2c2d53973e9456eecc2d",
    "placeId": "ChIJm3de77QW1moRIPqMIXVWBAU",
    "name": "Eumemmerring",
    "longitude": 145.2504506,
    "latitude": -37.9963814
  },
  {
    "code": "d39646e3faee9b823a7475c4c227ce6d",
    "placeId": "ChIJB3_IrPZf1moRQP-MIXVWBAU",
    "name": "Cairnlea",
    "longitude": 144.784452,
    "latitude": -37.7573769
  },
  {
    "code": "c51df624dbf7a96cbc42fb141a0edaca",
    "placeId": "ChIJv67tAL8j1moRsNyMIXVWBAU",
    "name": "Selby",
    "longitude": 145.3738355,
    "latitude": -37.91487559999999
  },
  {
    "code": "281717dba99833751096c06ac5c27709",
    "placeId": "ChIJf3wTDbdb1moRINKMIXVWBAU",
    "name": "Gowanbrae",
    "longitude": 144.8948907,
    "latitude": -37.7062908
  },
  {
    "code": "acd02b7f1cc5e2ce2c3c0e586d8103e3",
    "placeId": "ChIJgcASqQ1a1moRgP2MIXVWBAU",
    "name": "Attwood",
    "longitude": 144.8855923,
    "latitude": -37.6697809
  },
  {
    "code": "69f820ba81de59a9c3dc79dd778f201a",
    "placeId": "ChIJP4TKfkoW1moREPqMIXVWBAU",
    "name": "Lysterfield South",
    "longitude": 145.2825138,
    "latitude": -37.9598433
  },
  {
    "code": "aa7708f1445c502d070e42d5b2539ec4",
    "placeId": "ChIJVUebxI711moR0NKMIXVWBAU",
    "name": "Delahey",
    "longitude": 144.7727271,
    "latitude": -37.7154012
  },
  {
    "code": "d213d9cab6d47ae4f85bca9d1924c558",
    "placeId": "ChIJqfrjBGr11moRkPiMIXVWBAU",
    "name": "Albanvale",
    "longitude": 144.7700614,
    "latitude": -37.7459531
  },
  {
    "code": "2209ee4b5b5d5d61f32fc98984932a31",
    "placeId": "ChIJlxr7rZwS1moR4OCMIXVWBAU",
    "name": "Bangholme",
    "longitude": 145.1702424,
    "latitude": -38.0453436
  },
  {
    "code": "a8256a70e17568779746c0c2249d880d",
    "placeId": "ChIJcwx33hH11moRkACNIXVWBAU",
    "name": "Burnside Heights",
    "longitude": 144.7593958,
    "latitude": -37.7310619
  },
  {
    "code": "1ad95f179566062625841fdd1f20bde7",
    "placeId": "ChIJyXwbKw0P1moR0PuMIXVWBAU",
    "name": "Junction Village",
    "longitude": 145.2944402,
    "latitude": -38.1363724
  },
  {
    "code": "9ddda9b1951057ff405bee241a95acc0",
    "placeId": "ChIJhdHIF-AO1moR6JanlZq9Ytc",
    "name": "Botanic Ridge",
    "longitude": 145.2548626,
    "latitude": -38.1395065
  },
  {
    "code": "85ba2476e333b5d09653cb7523a2bce2",
    "placeId": "ChIJkTYieeoN1moRcACNIXVWBAU",
    "name": "Sandhurst",
    "longitude": 145.2042243,
    "latitude": -38.0807597
  },
  {
    "code": "0066e861a20b546574240c7a22f489fc",
    "placeId": "ChIJ1YtGyE301moRBVr3s547jRU",
    "name": "Fraser Rise",
    "longitude": 144.7268092,
    "latitude": -37.7097302
  }
]